var localitati = {
"type": "FeatureCollection",
"crs": { "type": "name", "properties": { "name": "urn:ogc:def:crs:OGC:1.3:CRS84" } },
                                                                                
"features": [
{ "type": "Feature", "properties": { "gid": 1, "name": "Alexandru I. Cuza", "localitate": "Alexandru I. Cuza", "siruat": 103032, "siruta": 103050, "x": 26.481297, "y": 44.427948 }, "geometry": { "type": "Point", "coordinates": [ 26.481307198913793, 44.427962957240062 ] } },
{ "type": "Feature", "properties": { "gid": 2, "name": "Codreni", "localitate": "Codreni", "siruat": 103568, "siruta": 103586, "x": 26.649361, "y": 44.390132 }, "geometry": { "type": "Point", "coordinates": [ 26.649371408160562, 44.390146589876665 ] } },
{ "type": "Feature", "properties": { "gid": 3, "name": "Preasna Veche", "localitate": "Preasna Veche", "siruat": 103568, "siruta": 103611, "x": 26.722428, "y": 44.360047 }, "geometry": { "type": "Point", "coordinates": [ 26.722437733132455, 44.360061716906081 ] } },
{ "type": "Feature", "properties": { "gid": 4, "name": "Lunca", "localitate": "Lunca", "siruat": 105712, "siruta": 105730, "x": 26.767981, "y": 44.341824 }, "geometry": { "type": "Point", "coordinates": [ 26.767991420904906, 44.341838562210349 ] } },
{ "type": "Feature", "properties": { "gid": 5, "name": "Nev&#259;&#355;u", "localitate": "Nev&#259;&#355;u", "siruat": 110456, "siruta": 110508, "x": 22.616718, "y": 44.892790 }, "geometry": { "type": "Point", "coordinates": [ 22.616723246766195, 44.892801003627355 ] } },
{ "type": "Feature", "properties": { "gid": 6, "name": "Satu Nou", "localitate": "Satu Nou", "siruat": 113395, "siruta": 113457, "x": 22.991606, "y": 44.312824 }, "geometry": { "type": "Point", "coordinates": [ 22.9916134713656, 44.312834677570606 ] } },
{ "type": "Feature", "properties": { "gid": 7, "name": "Mure&#x219;eni", "localitate": "Mure&#x219;eni", "siruat": 114319, "siruta": 114337, "x": 24.504000, "y": 46.514935 }, "geometry": { "type": "Point", "coordinates": [ 24.504003615665525, 46.514948502646718 ] } },
{ "type": "Feature", "properties": { "gid": 8, "name": "B&#226;rlib&#259;&#x219;oaia", "localitate": "B&#226;rlib&#259;&#x219;oaia", "siruat": 114603, "siruta": 114621, "x": 24.840508, "y": 46.278409 }, "geometry": { "type": "Point", "coordinates": [ 24.840511645558379, 46.278422998107757 ] } },
{ "type": "Feature", "properties": { "gid": 9, "name": "Maldaoci", "localitate": "Maldaoci", "siruat": 115236, "siruta": 115281, "x": 24.037430, "y": 46.408532 }, "geometry": { "type": "Point", "coordinates": [ 24.037433495795689, 46.408545456619734 ] } },
{ "type": "Feature", "properties": { "gid": 10, "name": "Dup&#259; Deal", "localitate": "Dup&#259; Deal", "siruat": 116439, "siruta": 116466, "x": 24.196052, "y": 46.487637 }, "geometry": { "type": "Point", "coordinates": [ 24.19605485160168, 46.487650505377438 ] } },
{ "type": "Feature", "properties": { "gid": 11, "name": "Hodaia", "localitate": "Hodaia", "siruat": 116723, "siruta": 116750, "x": 24.478158, "y": 46.773729 }, "geometry": { "type": "Point", "coordinates": [ 24.478160504003192, 46.773742455017363 ] } },
{ "type": "Feature", "properties": { "gid": 12, "name": "Porumbac", "localitate": "Porumbac", "siruat": 117827, "siruta": 117881, "x": 24.264671, "y": 46.492673 }, "geometry": { "type": "Point", "coordinates": [ 24.264674318061374, 46.492685979735306 ] } },
{ "type": "Feature", "properties": { "gid": 13, "name": "Racame&#355;", "localitate": "Racame&#355;", "siruat": 117827, "siruta": 117890, "x": 24.234728, "y": 46.513012 }, "geometry": { "type": "Point", "coordinates": [ 24.234730806072399, 46.513025919749737 ] } },
{ "type": "Feature", "properties": { "gid": 14, "name": "&#x219;andru", "localitate": "&#x219;andru", "siruat": 118637, "siruta": 118673, "x": 24.217045, "y": 46.536091 }, "geometry": { "type": "Point", "coordinates": [ 24.217047698360737, 46.536104122095267 ] } },
{ "type": "Feature", "properties": { "gid": 15, "name": "Ob&#226;r&#x219;ie", "localitate": "Ob&#226;r&#x219;ie", "siruat": 118995, "siruta": 119082, "x": 24.391444, "y": 46.744939 }, "geometry": { "type": "Point", "coordinates": [ 24.391446871406846, 46.744952488588716 ] } },
{ "type": "Feature", "properties": { "gid": 16, "name": "Dalu", "localitate": "Dalu", "siruat": 119386, "siruta": 119420, "x": 24.089695, "y": 46.545264 }, "geometry": { "type": "Point", "coordinates": [ 24.089697750444053, 46.545277519967215 ] } },
{ "type": "Feature", "properties": { "gid": 17, "name": "Rudari", "localitate": "Rudari", "siruat": 128613, "siruta": 128640, "x": 24.594987, "y": 43.990920 }, "geometry": { "type": "Point", "coordinates": [ 24.594996424416802, 43.990932439823943 ] } },
{ "type": "Feature", "properties": { "gid": 18, "name": "Ulmi", "localitate": "Ulmi", "siruat": 131620, "siruta": 131728, "x": 26.240334, "y": 44.948166 }, "geometry": { "type": "Point", "coordinates": [ 26.240342064982844, 44.948181154091571 ] } },
{ "type": "Feature", "properties": { "gid": 19, "name": "Cr&#226;ngurile", "localitate": "Cr&#226;ngurile", "siruat": 132164, "siruta": 132208, "x": 26.486461, "y": 44.995861 }, "geometry": { "type": "Point", "coordinates": [ 26.486469705023673, 44.995875776818671 ] } },
{ "type": "Feature", "properties": { "gid": 20, "name": "Pl&#259;ie&#355;u", "localitate": "Pl&#259;ie&#355;u", "siruat": 134096, "siruta": 134185, "x": 25.984140, "y": 45.340460 }, "geometry": { "type": "Point", "coordinates": [ 25.984147418411951, 45.340475073306862 ] } },
{ "type": "Feature", "properties": { "gid": 21, "name": "Gana&#x219;", "localitate": "Gana&#x219;", "siruat": 136713, "siruta": 136731, "x": 22.678368, "y": 47.517600 }, "geometry": { "type": "Point", "coordinates": [ 22.678366721776641, 47.517612024526301 ] } },
{ "type": "Feature", "properties": { "gid": 22, "name": "Cucu", "localitate": "Cucu", "siruat": 138280, "siruta": 138315, "x": 22.966066, "y": 47.786251 }, "geometry": { "type": "Point", "coordinates": [ 22.966064950541028, 47.786263032942571 ] } },
{ "type": "Feature", "properties": { "gid": 23, "name": "Eteni", "localitate": "Eteni", "siruat": 138280, "siruta": 138324, "x": 23.044310, "y": 47.778575 }, "geometry": { "type": "Point", "coordinates": [ 23.044308973566956, 47.778587500994625 ] } },
{ "type": "Feature", "properties": { "gid": 24, "name": "V&#259;ga&#x219;", "localitate": "V&#259;ga&#x219;", "siruat": 139009, "siruta": 139045, "x": 23.265743, "y": 48.063903 }, "geometry": { "type": "Point", "coordinates": [ 23.265740521672456, 48.063915615802024 ] } },
{ "type": "Feature", "properties": { "gid": 25, "name": "P&#259;dureni", "localitate": "P&#259;dureni", "siruat": 140440, "siruta": 140468, "x": 22.636282, "y": 47.330804 }, "geometry": { "type": "Point", "coordinates": [ 22.636281891472315, 47.33081556545099 ] } },
{ "type": "Feature", "properties": { "gid": 26, "name": "&#355;&#259;rmure", "localitate": "&#355;&#259;rmure", "siruat": 142881, "siruta": 142943, "x": 22.758604, "y": 47.353412 }, "geometry": { "type": "Point", "coordinates": [ 22.758603856641837, 47.353424169651284 ] } },
{ "type": "Feature", "properties": { "gid": 27, "name": "Ar&#355;ari", "localitate": "Ar&#355;ari", "siruat": 151512, "siruta": 146815, "x": 26.313614, "y": 47.761695 }, "geometry": { "type": "Point", "coordinates": [ 26.313615103810761, 47.761711242016148 ] } },
{ "type": "Feature", "properties": { "gid": 28, "name": "Iesle", "localitate": "Iesle", "siruat": 149316, "siruta": 149334, "x": 25.912347, "y": 47.313762 }, "geometry": { "type": "Point", "coordinates": [ 25.912349331743734, 47.313777711960796 ] } },
{ "type": "Feature", "properties": { "gid": 29, "name": "Groapa Vl&#259;dichii", "localitate": "Groapa Vl&#259;dichii", "siruat": 149414, "siruta": 149450, "x": 26.235277, "y": 47.566181 }, "geometry": { "type": "Point", "coordinates": [ 26.235278388041515, 47.566197588809146 ] } },
{ "type": "Feature", "properties": { "gid": 30, "name": "Cire&#x219;u Mic", "localitate": "Cire&#x219;u Mic", "siruat": 156534, "siruta": 156561, "x": 22.035879, "y": 45.674965 }, "geometry": { "type": "Point", "coordinates": [ 22.035882415912042, 45.674975785754 ] } },
{ "type": "Feature", "properties": { "gid": 31, "name": "Bunea Mic&#259;", "localitate": "Bunea Mic&#259;", "siruat": 156801, "siruta": 156874, "x": 22.094286, "y": 45.924661 }, "geometry": { "type": "Point", "coordinates": [ 22.094289030260601, 45.924671576727221 ] } },
{ "type": "Feature", "properties": { "gid": 32, "name": "Cheche&#x219;", "localitate": "Cheche&#x219;", "siruat": 158608, "siruta": 158626, "x": 21.754672, "y": 45.896347 }, "geometry": { "type": "Point", "coordinates": [ 21.754674436446891, 45.896357557394801 ] } },
{ "type": "Feature", "properties": { "gid": 33, "name": "St&#226;nca", "localitate": "St&#226;nca", "siruat": 159963, "siruta": 160038, "x": 28.289634, "y": 44.744646 }, "geometry": { "type": "Point", "coordinates": [ 28.289645424719303, 44.744663087859799 ] } },
{ "type": "Feature", "properties": { "gid": 34, "name": "C&#226;&#x219;li&#355;a", "localitate": "C&#226;&#x219;li&#355;a", "siruat": 160172, "siruta": 160190, "x": 29.298517, "y": 45.349904 }, "geometry": { "type": "Point", "coordinates": [ 29.298527537561469, 45.349922789839496 ] } },
{ "type": "Feature", "properties": { "gid": 35, "name": "Ardealu", "localitate": "Ardealu", "siruat": 160323, "siruta": 160341, "x": 28.308642, "y": 44.974474 }, "geometry": { "type": "Point", "coordinates": [ 28.308652834656804, 44.974491564256013 ] } },
{ "type": "Feature", "properties": { "gid": 36, "name": "Satu Nou", "localitate": "Satu Nou", "siruat": 162194, "siruta": 162256, "x": 27.798424, "y": 46.297536 }, "geometry": { "type": "Point", "coordinates": [ 27.798431088801507, 46.297553498947394 ] } },
{ "type": "Feature", "properties": { "gid": 37, "name": "Plopeni", "localitate": "Plopeni", "siruat": 162595, "siruta": 162657, "x": 27.601517, "y": 46.578423 }, "geometry": { "type": "Point", "coordinates": [ 27.601522651439378, 46.578440611959238 ] } },
{ "type": "Feature", "properties": { "gid": 38, "name": "Botoi", "localitate": "Botoi", "siruat": 163486, "siruta": 163529, "x": 27.382334, "y": 46.593399 }, "geometry": { "type": "Point", "coordinates": [ 27.382339471639778, 46.593416510662379 ] } },
{ "type": "Feature", "properties": { "gid": 39, "name": "Todireni", "localitate": "Todireni", "siruat": 165185, "siruta": 165256, "x": 28.130380, "y": 46.507167 }, "geometry": { "type": "Point", "coordinates": [ 28.130386211899207, 46.507185369016632 ] } },
{ "type": "Feature", "properties": { "gid": 40, "name": "Dealu Sec&#259;rii", "localitate": "Dealu Sec&#259;rii", "siruat": 165336, "siruta": 165354, "x": 27.567290, "y": 46.521378 }, "geometry": { "type": "Point", "coordinates": [ 27.56729627824733, 46.521395755121553 ] } },
{ "type": "Feature", "properties": { "gid": 41, "name": "Hordila", "localitate": "Hordila", "siruat": 165611, "siruta": 165666, "x": 27.433659, "y": 46.706733 }, "geometry": { "type": "Point", "coordinates": [ 27.433664217083265, 46.706750468130103 ] } },
{ "type": "Feature", "properties": { "gid": 42, "name": "B&#259;dila", "localitate": "B&#259;dila", "siruat": 19695, "siruta": 19711, "x": 24.708163, "y": 45.201857 }, "geometry": { "type": "Point", "coordinates": [ 24.708169045689594, 45.201870044106641 ] } },
{ "type": "Feature", "properties": { "gid": 43, "name": "Ruginoasa", "localitate": "Ruginoasa", "siruat": 19695, "siruta": 19766, "x": 24.721954, "y": 45.214060 }, "geometry": { "type": "Point", "coordinates": [ 24.721960303284011, 45.214073161885054 ] } },
{ "type": "Feature", "properties": { "gid": 44, "name": "Poiana", "localitate": "Poiana", "siruat": 21891, "siruta": 21926, "x": 27.209346, "y": 46.645417 }, "geometry": { "type": "Point", "coordinates": [ 27.209351263103457, 46.645434269502502 ] } },
{ "type": "Feature", "properties": { "gid": 45, "name": "B&#259;l&#259;ne&#x219;ti", "localitate": "B&#259;l&#259;ne&#x219;ti", "siruat": 22237, "siruta": 22264, "x": 27.317495, "y": 46.332925 }, "geometry": { "type": "Point", "coordinates": [ 27.317501136223868, 46.332941820156051 ] } },
{ "type": "Feature", "properties": { "gid": 46, "name": "Bobo&#x219;", "localitate": "Bobo&#x219;", "siruat": 22237, "siruta": 22282, "x": 27.321982, "y": 46.294178 }, "geometry": { "type": "Point", "coordinates": [ 27.321988182758339, 46.294194635769642 ] } },
{ "type": "Feature", "properties": { "gid": 47, "name": "Bost&#259;ne&#x219;ti", "localitate": "Bost&#259;ne&#x219;ti", "siruat": 22237, "siruta": 22308, "x": 27.317629, "y": 46.316586 }, "geometry": { "type": "Point", "coordinates": [ 27.317634710230411, 46.316603061837839 ] } },
{ "type": "Feature", "properties": { "gid": 48, "name": "Dorofei", "localitate": "Dorofei", "siruat": 22237, "siruta": 22335, "x": 27.312351, "y": 46.326747 }, "geometry": { "type": "Point", "coordinates": [ 27.312357177174565, 46.326764216868575 ] } },
{ "type": "Feature", "properties": { "gid": 49, "name": "&#355;&#226;g&#226;ra", "localitate": "&#355;&#226;g&#226;ra", "siruat": 24427, "siruta": 24515, "x": 27.219688, "y": 46.649125 }, "geometry": { "type": "Point", "coordinates": [ 27.219693604059547, 46.649142369479321 ] } },
{ "type": "Feature", "properties": { "gid": 50, "name": "Tisa", "localitate": "Tisa", "siruat": 25148, "siruta": 25200, "x": 26.719342, "y": 46.433575 }, "geometry": { "type": "Point", "coordinates": [ 26.719347344513256, 46.433591720651229 ] } },
{ "type": "Feature", "properties": { "gid": 51, "name": "Costei", "localitate": "Costei", "siruat": 25228, "siruta": 25255, "x": 26.971707, "y": 46.610826 }, "geometry": { "type": "Point", "coordinates": [ 26.971712258054961, 46.610842492989022 ] } },
{ "type": "Feature", "properties": { "gid": 52, "name": "Valea F&#226;na&#355;ului", "localitate": "Valea F&#226;na&#355;ului", "siruat": 25362, "siruta": 25460, "x": 27.113864, "y": 46.614224 }, "geometry": { "type": "Point", "coordinates": [ 27.113868895495081, 46.614240852176977 ] } },
{ "type": "Feature", "properties": { "gid": 53, "name": "Bota", "localitate": "Bota", "siruat": 25932, "siruta": 25978, "x": 27.141098, "y": 46.521061 }, "geometry": { "type": "Point", "coordinates": [ 27.141103075019959, 46.521078256063149 ] } },
{ "type": "Feature", "properties": { "gid": 54, "name": "P&#259;dureni", "localitate": "P&#259;dureni", "siruat": 32045, "siruta": 32072, "x": 22.460366, "y": 47.416998 }, "geometry": { "type": "Point", "coordinates": [ 22.460365703826501, 47.417009338691642 ] } },
{ "type": "Feature", "properties": { "gid": 55, "name": "Ibru", "localitate": "Ibru", "siruat": 3397, "siruta": 3422, "x": 23.345836, "y": 46.019530 }, "geometry": { "type": "Point", "coordinates": [ 23.345839869470808, 46.019542240525503 ] } },
{ "type": "Feature", "properties": { "gid": 56, "name": "Livada", "localitate": "Livada", "siruat": 37100, "siruta": 37146, "x": 27.093866, "y": 47.824422 }, "geometry": { "type": "Point", "coordinates": [ 27.093868293387221, 47.824439536023796 ] } },
{ "type": "Feature", "properties": { "gid": 57, "name": "Bold", "localitate": "Bold", "siruat": 37958, "siruta": 37976, "x": 27.135700, "y": 47.962011 }, "geometry": { "type": "Point", "coordinates": [ 27.135701799481268, 47.962028749215996 ] } },
{ "type": "Feature", "properties": { "gid": 58, "name": "&#x219;erpeni&#355;a", "localitate": "&#x219;erpeni&#355;a", "siruat": 37958, "siruta": 38045, "x": 27.094363, "y": 48.031543 }, "geometry": { "type": "Point", "coordinates": [ 27.094364110506074, 48.031560574043205 ] } },
{ "type": "Feature", "properties": { "gid": 59, "name": "Cervice&#x219;ti-Deal", "localitate": "Cervice&#x219;ti-Deal", "siruat": 38063, "siruta": 38125, "x": 26.515760, "y": 47.808506 }, "geometry": { "type": "Point", "coordinates": [ 26.515761287543476, 47.80852317347761 ] } },
{ "type": "Feature", "properties": { "gid": 60, "name": "Cinghiniia", "localitate": "Cinghiniia", "siruat": 38731, "siruta": 38759, "x": 27.136729, "y": 47.912978 }, "geometry": { "type": "Point", "coordinates": [ 27.136730771215511, 47.912995719835834 ] } },
{ "type": "Feature", "properties": { "gid": 61, "name": "Lehne&#x219;ti", "localitate": "Lehne&#x219;ti", "siruat": 38731, "siruta": 38768, "x": 27.175052, "y": 47.884319 }, "geometry": { "type": "Point", "coordinates": [ 27.175053701660616, 47.884336465082598 ] } },
{ "type": "Feature", "properties": { "gid": 62, "name": "Movila Rupt&#259;", "localitate": "Movila Rupt&#259;", "siruat": 38731, "siruta": 38777, "x": 27.165436, "y": 47.913016 }, "geometry": { "type": "Point", "coordinates": [ 27.165437910578284, 47.913034168421405 ] } },
{ "type": "Feature", "properties": { "gid": 63, "name": "Popoaia", "localitate": "Popoaia", "siruat": 38731, "siruta": 38786, "x": 27.162493, "y": 47.865118 }, "geometry": { "type": "Point", "coordinates": [ 27.162494740847617, 47.865135658282639 ] } },
{ "type": "Feature", "properties": { "gid": 64, "name": "Ripicenii Vechi", "localitate": "Ripicenii Vechi", "siruat": 38731, "siruta": 38795, "x": 27.173550, "y": 47.945542 }, "geometry": { "type": "Point", "coordinates": [ 27.173551436010904, 47.945559435738957 ] } },
{ "type": "Feature", "properties": { "gid": 65, "name": "R&#226;&#x219;ca", "localitate": "R&#226;&#x219;ca", "siruat": 38731, "siruta": 38802, "x": 27.196564, "y": 47.865770 }, "geometry": { "type": "Point", "coordinates": [ 27.196565609393375, 47.86578818360568 ] } },
{ "type": "Feature", "properties": { "gid": 66, "name": "Rom&#226;ne&#x219;ti-Vale", "localitate": "Rom&#226;ne&#x219;ti-Vale", "siruat": 38848, "siruta": 38875, "x": 27.277427, "y": 47.752900 }, "geometry": { "type": "Point", "coordinates": [ 27.277429629479919, 47.75291742446278 ] } },
{ "type": "Feature", "properties": { "gid": 67, "name": "T&#259;ute&#x219;ti", "localitate": "T&#259;ute&#x219;ti", "siruat": 39417, "siruta": 39514, "x": 26.731230, "y": 47.917814 }, "geometry": { "type": "Point", "coordinates": [ 26.73123150676593, 47.917831089535362 ] } },
{ "type": "Feature", "properties": { "gid": 68, "name": "Valea Grajdului", "localitate": "Valea Grajdului", "siruat": 39532, "siruta": 39596, "x": 26.738976, "y": 47.865226 }, "geometry": { "type": "Point", "coordinates": [ 26.738977800967543, 47.865243581643597 ] } },
{ "type": "Feature", "properties": { "gid": 69, "name": "Vultureni", "localitate": "Vultureni", "siruat": 39532, "siruta": 39603, "x": 26.712865, "y": 47.854109 }, "geometry": { "type": "Point", "coordinates": [ 26.71286687762554, 47.854126197847883 ] } },
{ "type": "Feature", "properties": { "gid": 70, "name": "Gura G&#226;rlu&#355;ei", "localitate": "Gura G&#226;rlu&#355;ei", "siruat": 42842, "siruta": 42888, "x": 27.814821, "y": 44.831893 }, "geometry": { "type": "Point", "coordinates": [ 27.814830867305524, 44.831909181387076 ] } },
{ "type": "Feature", "properties": { "gid": 71, "name": "Nicole&#x219;ti", "localitate": "Nicole&#x219;ti", "siruat": 42842, "siruta": 42897, "x": 27.832393, "y": 44.824294 }, "geometry": { "type": "Point", "coordinates": [ 27.832403292425418, 44.824310220618273 ] } },
{ "type": "Feature", "properties": { "gid": 72, "name": "Filiu", "localitate": "Filiu", "siruat": 42913, "siruta": 42940, "x": 27.522742, "y": 44.985295 }, "geometry": { "type": "Point", "coordinates": [ 27.522751156110196, 44.985311446264248 ] } },
{ "type": "Feature", "properties": { "gid": 73, "name": "Br&#259;deanca", "localitate": "Br&#259;deanca", "siruat": 43466, "siruta": 43484, "x": 27.211305, "y": 45.140876 }, "geometry": { "type": "Point", "coordinates": [ 27.211313729579242, 45.140891811167748 ] } },
{ "type": "Feature", "properties": { "gid": 74, "name": "Nedeicu", "localitate": "Nedeicu", "siruat": 43493, "siruta": 43536, "x": 27.974347, "y": 44.827081 }, "geometry": { "type": "Point", "coordinates": [ 27.974356975490224, 44.827097999601442 ] } },
{ "type": "Feature", "properties": { "gid": 75, "name": "De&#x219;ira&#355;i", "localitate": "De&#x219;ira&#355;i", "siruat": 43929, "siruta": 43947, "x": 27.573991, "y": 45.323710 }, "geometry": { "type": "Point", "coordinates": [ 27.573999505485308, 45.323726251990593 ] } },
{ "type": "Feature", "properties": { "gid": 76, "name": "Nicolae B&#259;lcescu", "localitate": "Nicolae B&#259;lcescu", "siruat": 43929, "siruta": 43965, "x": 27.570501, "y": 45.373054 }, "geometry": { "type": "Point", "coordinates": [ 27.570509313264484, 45.373070453874327 ] } },
{ "type": "Feature", "properties": { "gid": 77, "name": "Morote&#x219;ti", "localitate": "Morote&#x219;ti", "siruat": 44355, "siruta": 44373, "x": 27.742894, "y": 45.129771 }, "geometry": { "type": "Point", "coordinates": [ 27.742903434056068, 45.129787471220126 ] } },
{ "type": "Feature", "properties": { "gid": 78, "name": "T&#259;tule&#x219;ti", "localitate": "T&#259;tule&#x219;ti", "siruat": 48138, "siruta": 48156, "x": 27.117962, "y": 44.915057 }, "geometry": { "type": "Point", "coordinates": [ 27.117971426383843, 44.915073216042302 ] } },
{ "type": "Feature", "properties": { "gid": 79, "name": "Grabicina de Sus", "localitate": "Grabicina de Sus", "siruat": 49313, "siruta": 49395, "x": 26.663912, "y": 45.429127 }, "geometry": { "type": "Point", "coordinates": [ 26.663919898467118, 45.429142955142282 ] } },
{ "type": "Feature", "properties": { "gid": 80, "name": "Comisoaia", "localitate": "Comisoaia", "siruat": 50415, "siruta": 50433, "x": 26.922101, "y": 45.302192 }, "geometry": { "type": "Point", "coordinates": [ 26.922108813583392, 45.302208316619804 ] } },
{ "type": "Feature", "properties": { "gid": 81, "name": "Lindenfeld", "localitate": "Lindenfeld", "siruat": 51699, "siruta": 51715, "x": 22.110496, "y": 45.313047 }, "geometry": { "type": "Point", "coordinates": [ 22.110500732666083, 45.313056925472388 ] } },
{ "type": "Feature", "properties": { "gid": 82, "name": "Cic&#226;rd", "localitate": "Cic&#226;rd", "siruat": 5210, "siruta": 5265, "x": 23.904680, "y": 46.274031 }, "geometry": { "type": "Point", "coordinates": [ 23.904683312993232, 46.274043943740402 ] } },
{ "type": "Feature", "properties": { "gid": 83, "name": "Geam&#259;na", "localitate": "Geam&#259;na", "siruat": 5336, "siruta": 5390, "x": 23.206260, "y": 46.329289 }, "geometry": { "type": "Point", "coordinates": [ 23.206262196824319, 46.32930087591501 ] } },
{ "type": "Feature", "properties": { "gid": 84, "name": "Pe&#x219;tera", "localitate": "Pe&#x219;tera", "siruat": 55008, "siruta": 55035, "x": 23.721650, "y": 47.186775 }, "geometry": { "type": "Point", "coordinates": [ 23.721651152884316, 47.186788155505326 ] } },
{ "type": "Feature", "properties": { "gid": 85, "name": "Giurcu&#355;a de Jos", "localitate": "Giurcu&#355;a de Jos", "siruat": 56014, "siruta": 56050, "x": 22.913116, "y": 46.649372 }, "geometry": { "type": "Point", "coordinates": [ 22.913117876458063, 46.649384152448867 ] } },
{ "type": "Feature", "properties": { "gid": 86, "name": "Bor&#x219;a-Crestaia", "localitate": "Bor&#x219;a-Crestaia", "siruat": 56265, "siruta": 56292, "x": 23.661681, "y": 46.927848 }, "geometry": { "type": "Point", "coordinates": [ 23.661682505006237, 46.927860452870092 ] } },
{ "type": "Feature", "properties": { "gid": 87, "name": "Andici", "localitate": "Andici", "siruat": 56844, "siruta": 56862, "x": 23.924280, "y": 46.652386 }, "geometry": { "type": "Point", "coordinates": [ 23.924282564573687, 46.652399554757054 ] } },
{ "type": "Feature", "properties": { "gid": 88, "name": "Mor&#355;e&#x219;ti", "localitate": "Mor&#355;e&#x219;ti", "siruat": 56844, "siruta": 56942, "x": 23.906867, "y": 46.638900 }, "geometry": { "type": "Point", "coordinates": [ 23.906869329780395, 46.638913179631153 ] } },
{ "type": "Feature", "properties": { "gid": 89, "name": "St&#226;rcu", "localitate": "St&#226;rcu", "siruat": 56844, "siruta": 56951, "x": 23.898429, "y": 46.647097 }, "geometry": { "type": "Point", "coordinates": [ 23.898431189311388, 46.647110445302232 ] } },
{ "type": "Feature", "properties": { "gid": 90, "name": "Z&#259;rie&#x219;", "localitate": "Z&#259;rie&#x219;", "siruat": 5700, "siruta": 5746, "x": 23.706303, "y": 46.182972 }, "geometry": { "type": "Point", "coordinates": [ 23.706306650801963, 46.182985067502059 ] } },
{ "type": "Feature", "properties": { "gid": 91, "name": "Lunca Bon&#355;ului", "localitate": "Lunca Bon&#355;ului", "siruat": 57644, "siruta": 57671, "x": 23.959336, "y": 46.984028 }, "geometry": { "type": "Point", "coordinates": [ 23.959337942860451, 46.984041817895253 ] } },
{ "type": "Feature", "properties": { "gid": 92, "name": "Curcani", "localitate": "Curcani", "siruat": 61318, "siruta": 61345, "x": 28.096610, "y": 43.998320 }, "geometry": { "type": "Point", "coordinates": [ 28.096622759319128, 43.998336553845931 ] } },
{ "type": "Feature", "properties": { "gid": 93, "name": "Straja", "localitate": "Straja", "siruat": 61620, "siruta": 61666, "x": 28.465775, "y": 44.101558 }, "geometry": { "type": "Point", "coordinates": [ 28.465788044500286, 44.101574553242735 ] } },
{ "type": "Feature", "properties": { "gid": 94, "name": "Gr&#259;niceru", "localitate": "Gr&#259;niceru", "siruat": 62397, "siruta": 62422, "x": 28.262688, "y": 43.794187 }, "geometry": { "type": "Point", "coordinates": [ 28.262701017577232, 43.79420311571841 ] } },
{ "type": "Feature", "properties": { "gid": 95, "name": "Meri&#x219;or", "localitate": "Meri&#x219;or", "siruat": 63688, "siruta": 63713, "x": 26.093229, "y": 45.636841 }, "geometry": { "type": "Point", "coordinates": [ 26.09323550908827, 45.63685615537549 ] } },
{ "type": "Feature", "properties": { "gid": 96, "name": "Ince&#x219;ti", "localitate": "Ince&#x219;ti", "siruat": 6468, "siruta": 6495, "x": 23.283598, "y": 46.460165 }, "geometry": { "type": "Point", "coordinates": [ 23.283600473206615, 46.460176931881861 ] } },
{ "type": "Feature", "properties": { "gid": 97, "name": "Italieni", "localitate": "Italieni", "siruat": 69964, "siruta": 69991, "x": 23.595421, "y": 44.302813 }, "geometry": { "type": "Point", "coordinates": [ 23.595428253125107, 44.302824245437208 ] } },
{ "type": "Feature", "properties": { "gid": 98, "name": "Caraiman", "localitate": "Caraiman", "siruat": 70986, "siruta": 71000, "x": 23.379357, "y": 44.346707 }, "geometry": { "type": "Point", "coordinates": [ 23.379364724563715, 44.346718372893505 ] } },
{ "type": "Feature", "properties": { "gid": 99, "name": "Malaica", "localitate": "Malaica", "siruat": 71698, "siruta": 71714, "x": 23.669152, "y": 44.087053 }, "geometry": { "type": "Point", "coordinates": [ 23.669160356617322, 44.087064386476406 ] } },
{ "type": "Feature", "properties": { "gid": 100, "name": "Chia&#x219;u", "localitate": "Chia&#x219;u", "siruat": 72007, "siruta": 72025, "x": 24.080188, "y": 43.758387 }, "geometry": { "type": "Point", "coordinates": [ 24.08019690526703, 43.758398691829022 ] } },
{ "type": "Feature", "properties": { "gid": 101, "name": "Grui&#355;a", "localitate": "Grui&#355;a", "siruat": 72677, "siruta": 72711, "x": 23.800334, "y": 44.505994 }, "geometry": { "type": "Point", "coordinates": [ 23.80034138206689, 44.506005821596254 ] } },
{ "type": "Feature", "properties": { "gid": 102, "name": "Cet&#259;&#355;uia", "localitate": "Cet&#259;&#355;uia", "siruat": 74616, "siruta": 74643, "x": 23.384017, "y": 44.294056 }, "geometry": { "type": "Point", "coordinates": [ 23.384024894695802, 44.294067554403533 ] } },
{ "type": "Feature", "properties": { "gid": 103, "name": "Medre&#x219;ti", "localitate": "Medre&#x219;ti", "siruat": 7446, "siruta": 7605, "x": 22.953204, "y": 46.295223 }, "geometry": { "type": "Point", "coordinates": [ 22.953206243649234, 46.295234552790831 ] } },
{ "type": "Feature", "properties": { "gid": 104, "name": "Hu&#x219;tiu", "localitate": "Hu&#x219;tiu", "siruat": 77028, "siruta": 77055, "x": 27.420390, "y": 46.131084 }, "geometry": { "type": "Point", "coordinates": [ 27.420396830628526, 46.131100733980141 ] } },
{ "type": "Feature", "properties": { "gid": 105, "name": "Dopt&#259;u", "localitate": "Dopt&#259;u", "siruat": 7865, "siruta": 7909, "x": 23.932585, "y": 46.263390 }, "geometry": { "type": "Point", "coordinates": [ 23.932587907281967, 46.263403328031956 ] } },
{ "type": "Feature", "properties": { "gid": 106, "name": "Carpenii de Sus", "localitate": "Carpenii de Sus", "siruat": 7945, "siruta": 7972, "x": 23.708555, "y": 45.992662 }, "geometry": { "type": "Point", "coordinates": [ 23.708559126093707, 45.992674837087343 ] } },
{ "type": "Feature", "properties": { "gid": 107, "name": "G&#259;le&#x219;oaia", "localitate": "G&#259;le&#x219;oaia", "siruat": 79736, "siruta": 79772, "x": 23.080119, "y": 44.924776 }, "geometry": { "type": "Point", "coordinates": [ 23.080125035331012, 44.924787495124825 ] } },
{ "type": "Feature", "properties": { "gid": 108, "name": "Vargatac", "localitate": "Vargatac", "siruat": 83561, "siruta": 83605, "x": 25.629864, "y": 46.754084 }, "geometry": { "type": "Point", "coordinates": [ 25.629867929985071, 46.754099210108741 ] } },
{ "type": "Feature", "properties": { "gid": 109, "name": "Borde&#x219;tii Poieni", "localitate": "Borde&#x219;tii Poieni", "siruat": 8425, "siruta": 8470, "x": 22.924654, "y": 46.355127 }, "geometry": { "type": "Point", "coordinates": [ 22.92465632507291, 46.355139180948555 ] } },
{ "type": "Feature", "properties": { "gid": 110, "name": "&#x219;a&#x219;vere&#x219;", "localitate": "&#x219;a&#x219;vere&#x219;", "siruat": 85341, "siruta": 85403, "x": 25.096083, "y": 46.562822 }, "geometry": { "type": "Point", "coordinates": [ 25.09608631437797, 46.56283603839816 ] } },
{ "type": "Feature", "properties": { "gid": 111, "name": "Martonca", "localitate": "Martonca", "siruat": 85412, "siruta": 85449, "x": 25.428499, "y": 46.829092 }, "geometry": { "type": "Point", "coordinates": [ 25.428501873804848, 46.829106751398548 ] } },
{ "type": "Feature", "properties": { "gid": 112, "name": "Hosas&#259;u", "localitate": "Hosas&#259;u", "siruat": 86479, "siruta": 85715, "x": 25.906313, "y": 46.343543 }, "geometry": { "type": "Point", "coordinates": [ 25.906317968142204, 46.343558015459891 ] } },
{ "type": "Feature", "properties": { "gid": 113, "name": "Poieni", "localitate": "Poieni", "siruat": 8425, "siruta": 8719, "x": 22.908436, "y": 46.346968 }, "geometry": { "type": "Point", "coordinates": [ 22.908438719927393, 46.346979532025721 ] } },
{ "type": "Feature", "properties": { "gid": 114, "name": "Bune&#x219;ti", "localitate": "Bune&#x219;ti", "siruat": 87843, "siruta": 87889, "x": 23.034315, "y": 46.065291 }, "geometry": { "type": "Point", "coordinates": [ 23.034318005605499, 46.065302868762387 ] } },
{ "type": "Feature", "properties": { "gid": 115, "name": "Ticera", "localitate": "Ticera", "siruat": 88920, "siruta": 89008, "x": 22.877817, "y": 46.318346 }, "geometry": { "type": "Point", "coordinates": [ 22.877819330331118, 46.318357771079654 ] } },
{ "type": "Feature", "properties": { "gid": 116, "name": "Ba&#x219;tea", "localitate": "Ba&#x219;tea", "siruat": 89954, "siruta": 89972, "x": 22.412962, "y": 45.877749 }, "geometry": { "type": "Point", "coordinates": [ 22.412965563678174, 45.877760320086644 ] } },
{ "type": "Feature", "properties": { "gid": 117, "name": "Ciumi&#355;a", "localitate": "Ciumi&#355;a", "siruat": 90119, "siruta": 90137, "x": 22.515223, "y": 45.671118 }, "geometry": { "type": "Point", "coordinates": [ 22.515226824978043, 45.671128904416697 ] } },
{ "type": "Feature", "properties": { "gid": 118, "name": "Mesteac&#259;n", "localitate": "Mesteac&#259;n", "siruat": 90725, "siruta": 90789, "x": 22.739995, "y": 45.633250 }, "geometry": { "type": "Point", "coordinates": [ 22.73999882853041, 45.633261391020376 ] } },
{ "type": "Feature", "properties": { "gid": 119, "name": "Curpenii Silva&#x219;ului", "localitate": "Curpenii Silva&#x219;ului", "siruat": 91535, "siruta": 91553, "x": 22.819725, "y": 45.655086 }, "geometry": { "type": "Point", "coordinates": [ 22.819729152226852, 45.655097631758132 ] } },
{ "type": "Feature", "properties": { "gid": 120, "name": "Mosoru", "localitate": "Mosoru", "siruat": 91535, "siruta": 91606, "x": 22.802068, "y": 45.652873 }, "geometry": { "type": "Point", "coordinates": [ 22.802072468253392, 45.652883940268673 ] } },
{ "type": "Feature", "properties": { "gid": 121, "name": "Copaci", "localitate": "Copaci", "siruat": 91624, "siruta": 91651, "x": 22.903114, "y": 45.592391 }, "geometry": { "type": "Point", "coordinates": [ 22.903118483407042, 45.592402296196589 ] } },
{ "type": "Feature", "properties": { "gid": 122, "name": "Stoene&#x219;ti", "localitate": "Stoene&#x219;ti", "siruat": 92587, "siruta": 92621, "x": 27.355451, "y": 44.283627 }, "geometry": { "type": "Point", "coordinates": [ 27.355461917008341, 44.28364216593031 ] } },
{ "type": "Feature", "properties": { "gid": 123, "name": "Libertatea", "localitate": "Libertatea", "siruat": 93325, "siruta": 93352, "x": 27.499826, "y": 44.267804 }, "geometry": { "type": "Point", "coordinates": [ 27.499836972522555, 44.267819899608156 ] } },
{ "type": "Feature", "properties": { "gid": 124, "name": "Valea Seac&#259;", "localitate": "Valea Seac&#259;", "siruat": 93888, "siruta": 93922, "x": 26.894810, "y": 44.411888 }, "geometry": { "type": "Point", "coordinates": [ 26.894820525657355, 44.411903395178228 ] } },
{ "type": "Feature", "properties": { "gid": 125, "name": "Retezatu", "localitate": "Retezatu", "siruat": 94492, "siruta": 94526, "x": 27.893587, "y": 44.441546 }, "geometry": { "type": "Point", "coordinates": [ 27.89359866210846, 44.441562210382173 ] } },
{ "type": "Feature", "properties": { "gid": 126, "name": "Bran", "localitate": "Bran", "siruat": 97090, "siruta": 97116, "x": 27.713784, "y": 47.247045 }, "geometry": { "type": "Point", "coordinates": [ 27.713787854452253, 47.247063486647015 ] } },
{ "type": "Feature", "properties": { "gid": 127, "name": "Ostrovu T&#259;taru", "localitate": "Ostrovu T&#259;taru", "siruat": 160172, "siruta": 160207, "x": 29.184901, "y": 45.398170 }, "geometry": { "type": "Point", "coordinates": [ 29.184911817015717, 45.39818839229811 ] } },
{ "type": "Feature", "properties": { "gid": 128, "name": "&#x219;asa", "localitate": "&#x219;asa", "siruat": 5336, "siruta": 5504, "x": 23.209016, "y": 46.319910 }, "geometry": { "type": "Point", "coordinates": [ 23.209018273150377, 46.319922417935416 ] } }
]
}
